<?xml version="1.0" encoding="UTF-8"?>
<kml xmlns="http://www.opengis.net/kml/2.2">
  <Document>
    <name>Oceania Honeymoon 2026 – Singapore &amp; Melbourne</name>
    <description>新加坡 + 墨爾本景點地圖</description>

    <!-- Singapore D01 -->
    <Folder>
      <name>SIN D01 ｜ 新加坡抵達（4/29 晚）</name>
      <Placemark>
        <name>諾維維多利亞飯店（住宿）</name>
        <description>87 Victoria Street；2晚</description>
        <Point><coordinates>103.8554,1.2992,0</coordinates></Point>
      </Placemark>
      <Placemark>
        <name>Gardens by the Bay 濱海灣花園</name>
        <description>光影秀；D1 晚間可選</description>
        <Point><coordinates>103.8636,1.2816,0</coordinates></Point>
      </Placemark>
      <Placemark>
        <name>Marina Bay Sands（The Shoppes）</name>
        <description>購物廣場；D1 晚間</description>
        <Point><coordinates>103.8608,1.2838,0</coordinates></Point>
      </Placemark>
      <Placemark>
        <name>Clarke Quay 克拉碼頭</name>
        <description>夜間酒吧街；D1 晚間</description>
        <Point><coordinates>103.8465,1.2906,0</coordinates></Point>
      </Placemark>
    </Folder>

    <!-- Singapore D02 -->
    <Folder>
      <name>SIN D02 ｜ 新加坡自由行（4/30）</name>
      <Placemark>
        <name>Haji Lane 哈芝巷</name>
        <description>壁畫街區；08:00</description>
        <Point><coordinates>103.8594,1.3022,0</coordinates></Point>
      </Placemark>
      <Placemark>
        <name>Chinatown 牛車水</name>
        <description>廟宇 + 伴手禮；09:00</description>
        <Point><coordinates>103.8444,1.2834,0</coordinates></Point>
      </Placemark>
      <Placemark>
        <name>Universal Studios Singapore（聖淘沙可選）</name>
        <description>環球影城；可選</description>
        <Point><coordinates>103.8238,1.2540,0</coordinates></Point>
      </Placemark>
      <Placemark>
        <name>S.E.A. Aquarium（聖淘沙可選）</name>
        <description>海洋館；可選</description>
        <Point><coordinates>103.8199,1.2543,0</coordinates></Point>
      </Placemark>
      <Placemark>
        <name>Skyline Luge Sentosa（聖淘沙可選）</name>
        <description>滑車；可選</description>
        <Point><coordinates>103.8217,1.2529,0</coordinates></Point>
      </Placemark>
      <Placemark>
        <name>Golden Mile Thien Kee 雞飯</name>
        <description>16:00；Beach Road 一帶</description>
        <Point><coordinates>103.8571,1.3006,0</coordinates></Point>
      </Placemark>
      <Placemark>
        <name>Lexus Durian King</name>
        <description>18:00；Kovan 站附近；現場買榴槤</description>
        <Point><coordinates>103.8887,1.3623,0</coordinates></Point>
      </Placemark>
    </Folder>

    <!-- Melbourne D1 -->
    <Folder>
      <name>MEL D1 ｜ 墨爾本抵達（5/02）</name>
      <Placemark>
        <name>維多利亞酒店（住宿）</name>
        <description>215 Little Collins St；2晚</description>
        <Point><coordinates>144.9659,-37.8144,0</coordinates></Point>
      </Placemark>
    </Folder>

    <!-- Melbourne D2 -->
    <Folder>
      <name>MEL D2 ｜ 墨爾本自由行（5/03）</name>
      <Placemark>
        <name>Queen Victoria Market</name>
        <description>週日農夫市集</description>
        <Point><coordinates>144.9568,-37.8076,0</coordinates></Point>
      </Placemark>
      <Placemark>
        <name>Hosier Lane 塗鴉巷</name>
        <description>街頭藝術塗鴉；免費</description>
        <Point><coordinates>144.9671,-37.8183,0</coordinates></Point>
      </Placemark>
      <Placemark>
        <name>St Kilda Beach</name>
        <description>海灘；電車可達</description>
        <Point><coordinates>144.9763,-37.8640,0</coordinates></Point>
      </Placemark>
    </Folder>

  </Document>
</kml>
